{"type":"FeatureCollection", "features": [
{"type":"Feature","geometry":{"type":"Point","coordinates":[94.60643036837422,28.54053486654737]},"properties":{"OBJECTID_1":169,"OBJECTID":169,"Name":"Cheying","DIST_NAME":""}},
{"type":"Feature","geometry":{"type":"Point","coordinates":[94.65188900040198,28.646079000139146]},"properties":{"OBJECTID_1":193,"OBJECTID":193,"Name":"Gasheng","DIST_NAME":""}},
{"type":"Feature","geometry":{"type":"Point","coordinates":[94.64786942586369,28.5259159317901]},"properties":{"OBJECTID_1":206,"OBJECTID":206,"Name":"Meying","DIST_NAME":""}},
{"type":"Feature","geometry":{"type":"Point","coordinates":[94.64703351172116,28.578772106082088]},"properties":{"OBJECTID_1":216,"OBJECTID":216,"Name":"Payum","DIST_NAME":""}},
{"type":"Feature","geometry":{"type":"Point","coordinates":[94.6851136062658,28.354858611180465]},"properties":{"OBJECTID_1":221,"OBJECTID":221,"Name":"Kerang","DIST_NAME":""}},
{"type":"Feature","geometry":{"type":"Point","coordinates":[94.6394196754669,28.541124672320112]},"properties":{"OBJECTID_1":225,"OBJECTID":225,"Name":"Molo","DIST_NAME":""}},
{"type":"Feature","geometry":{"type":"Point","coordinates":[94.69279072266595,28.411438927171282]},"properties":{"OBJECTID_1":228,"OBJECTID":228,"Name":"Pagak","DIST_NAME":""}},
{"type":"Feature","geometry":{"type":"Point","coordinates":[94.8015590000249,28.315286000376716]},"properties":{"OBJECTID_1":229,"OBJECTID":229,"Name":"Molom","DIST_NAME":""}},
{"type":"Feature","geometry":{"type":"Point","coordinates":[94.78985899970755,28.377349000404376]},"properties":{"OBJECTID_1":234,"OBJECTID":234,"Name":"Yosing","DIST_NAME":""}},
{"type":"Feature","geometry":{"type":"Point","coordinates":[95.01106927926038,28.608123518650906]},"properties":{"OBJECTID_1":332,"OBJECTID":332,"Name":"Tenemoka","DIST_NAME":""}},
{"type":"Feature","geometry":{"type":"Point","coordinates":[94.85030299955561,28.23578300019825]},"properties":{"OBJECTID_1":691,"OBJECTID":691,"Name":"Beging","DIST_NAME":""}},
{"type":"Feature","geometry":{"type":"Point","coordinates":[94.68224523481302,28.39691546672254]},"properties":{"OBJECTID_1":692,"OBJECTID":692,"Name":"Sirum","DIST_NAME":""}},
{"type":"Feature","geometry":{"type":"Point","coordinates":[94.84613799964181,28.293746999824275]},"properties":{"OBJECTID_1":693,"OBJECTID":693,"Name":"Jomo","DIST_NAME":""}},
{"type":"Feature","geometry":{"type":"Point","coordinates":[94.7604010000228,28.240419999566097]},"properties":{"OBJECTID_1":695,"OBJECTID":695,"Name":"Sipeng","DIST_NAME":""}},
{"type":"Feature","geometry":{"type":"Point","coordinates":[94.78955099966961,28.309387000310174]},"properties":{"OBJECTID_1":697,"OBJECTID":697,"Name":"Bingung","DIST_NAME":""}},
{"type":"Feature","geometry":{"type":"Point","coordinates":[94.81931799965214,28.218294000249905]},"properties":{"OBJECTID_1":700,"OBJECTID":700,"Name":"Jomlo Mongku","DIST_NAME":""}},
{"type":"Feature","geometry":{"type":"Point","coordinates":[94.79034999969024,28.209626999740596]},"properties":{"OBJECTID_1":704,"OBJECTID":704,"Name":"Pangkeng","DIST_NAME":""}},
{"type":"Feature","geometry":{"type":"Point","coordinates":[94.86786300006537,28.229249999713975]},"properties":{"OBJECTID_1":707,"OBJECTID":707,"Name":"Model village","DIST_NAME":""}},
{"type":"Feature","geometry":{"type":"Point","coordinates":[94.91356400009694,28.2440730001509]},"properties":{"OBJECTID_1":709,"OBJECTID":709,"Name":"Damda Debuk","DIST_NAME":""}},
{"type":"Feature","geometry":{"type":"Point","coordinates":[94.8594510000405,28.22682100000079]},"properties":{"OBJECTID_1":710,"OBJECTID":710,"Name":"Ralung","DIST_NAME":""}},
{"type":"Feature","geometry":{"type":"Point","coordinates":[94.91703299968914,28.253872999687214]},"properties":{"OBJECTID_1":711,"OBJECTID":711,"Name":"Damda Deku","DIST_NAME":""}},
{"type":"Feature","geometry":{"type":"Point","coordinates":[94.84482599984344,28.319761999909865]},"properties":{"OBJECTID_1":713,"OBJECTID":713,"Name":"Mopung","DIST_NAME":""}},
{"type":"Feature","geometry":{"type":"Point","coordinates":[94.82756000035934,28.214230000322043]},"properties":{"OBJECTID_1":715,"OBJECTID":715,"Name":"Patum","DIST_NAME":""}},
{"type":"Feature","geometry":{"type":"Point","coordinates":[94.81145800040038,28.20614400005748]},"properties":{"OBJECTID_1":717,"OBJECTID":717,"Name":"Pessing","DIST_NAME":""}},
{"type":"Feature","geometry":{"type":"Point","coordinates":[94.88313199987374,28.30888199991655]},"properties":{"OBJECTID_1":719,"OBJECTID":719,"Name":"Rumgong village","DIST_NAME":""}},
{"type":"Feature","geometry":{"type":"Point","coordinates":[94.80057300000347,28.200415000376456]},"properties":{"OBJECTID_1":780,"OBJECTID":780,"Name":"Roying","DIST_NAME":""}},
{"type":"Feature","geometry":{"type":"Point","coordinates":[95.06149833023407,28.358271669627793]},"properties":{"OBJECTID_1":1494,"OBJECTID":1494,"Name":"Dite Dime","DIST_NAME":""}},
{"type":"Feature","geometry":{"type":"Point","coordinates":[94.96301320036562,28.336457289951664]},"properties":{"OBJECTID_1":1498,"OBJECTID":1498,"Name":"Lileng","DIST_NAME":""}},
{"type":"Feature","geometry":{"type":"Point","coordinates":[94.97671904956987,28.331964560221074]},"properties":{"OBJECTID_1":1501,"OBJECTID":1501,"Name":"Dosing","DIST_NAME":""}},
{"type":"Feature","geometry":{"type":"Point","coordinates":[94.97201168981519,28.319396080382194]},"properties":{"OBJECTID_1":1502,"OBJECTID":1502,"Name":"Rengo","DIST_NAME":""}},
{"type":"Feature","geometry":{"type":"Point","coordinates":[95.04761772032549,28.259732260350756]},"properties":{"OBJECTID_1":1503,"OBJECTID":1503,"Name":"Jorsing","DIST_NAME":""}},
{"type":"Feature","geometry":{"type":"Point","coordinates":[94.80197099997794,28.50396500002578]},"properties":{"OBJECTID_1":1504,"OBJECTID":1504,"Name":"Lissing","DIST_NAME":""}},
{"type":"Feature","geometry":{"type":"Point","coordinates":[95.0221730998015,28.15426771003468]},"properties":{"OBJECTID_1":1505,"OBJECTID":1505,"Name":"Kebang Sole","DIST_NAME":""}},
{"type":"Feature","geometry":{"type":"Point","coordinates":[95.02808899974349,28.17780699990867]},"properties":{"OBJECTID_1":1506,"OBJECTID":1506,"Name":"Kebang Poklek","DIST_NAME":""}},
{"type":"Feature","geometry":{"type":"Point","coordinates":[94.91274383974273,28.231359209813355]},"properties":{"OBJECTID_1":1507,"OBJECTID":1507,"Name":"Lokpeng","DIST_NAME":""}},
{"type":"Feature","geometry":{"type":"Point","coordinates":[95.03975475028417,28.160048589772824]},"properties":{"OBJECTID_1":1508,"OBJECTID":1508,"Name":"Kebang Radha","DIST_NAME":""}},
{"type":"Feature","geometry":{"type":"Point","coordinates":[95.01602955995666,28.260790779553957]},"properties":{"OBJECTID_1":1509,"OBJECTID":1509,"Name":"Komsing Kumku","DIST_NAME":""}},
{"type":"Feature","geometry":{"type":"Point","coordinates":[94.99308382952671,28.224929680285943]},"properties":{"OBJECTID_1":1510,"OBJECTID":1510,"Name":"Koreng","DIST_NAME":""}},
{"type":"Feature","geometry":{"type":"Point","coordinates":[94.79514000019363,28.458981000390875]},"properties":{"OBJECTID_1":1511,"OBJECTID":1511,"Name":"Messing","DIST_NAME":""}},
{"type":"Feature","geometry":{"type":"Point","coordinates":[94.96710374969811,28.298127379736048]},"properties":{"OBJECTID_1":1512,"OBJECTID":1512,"Name":"Mopit","DIST_NAME":""}},
{"type":"Feature","geometry":{"type":"Point","coordinates":[94.98950220043625,28.2118532098333]},"properties":{"OBJECTID_1":1513,"OBJECTID":1513,"Name":"Pangin village","DIST_NAME":""}},
{"type":"Feature","geometry":{"type":"Point","coordinates":[94.99324398030866,28.21534263039179]},"properties":{"OBJECTID_1":1514,"OBJECTID":1514,"Name":"Pangin HQ","DIST_NAME":""}},
{"type":"Feature","geometry":{"type":"Point","coordinates":[95.08805172964821,28.484789439730235]},"properties":{"OBJECTID_1":1516,"OBJECTID":1516,"Name":"Ugeng","DIST_NAME":""}},
{"type":"Feature","geometry":{"type":"Point","coordinates":[94.98632100033792,28.23907299979189]},"properties":{"OBJECTID_1":1518,"OBJECTID":1518,"Name":"Yeksi","DIST_NAME":""}},
{"type":"Feature","geometry":{"type":"Point","coordinates":[95.007059969524,28.10455082001174]},"properties":{"OBJECTID_1":1520,"OBJECTID":1520,"Name":"Yemsing","DIST_NAME":""}},
{"type":"Feature","geometry":{"type":"Point","coordinates":[95.05201000042554,28.30323600014746]},"properties":{"OBJECTID_1":1540,"OBJECTID":1540,"Name":"Rebo Perging","DIST_NAME":""}},
{"type":"Feature","geometry":{"type":"Point","coordinates":[95.11110000009192,28.48380000009415]},"properties":{"OBJECTID_1":1567,"OBJECTID":1567,"Name":"Komkar(Sizer)","DIST_NAME":""}},
{"type":"Feature","geometry":{"type":"Point","coordinates":[95.11520000006209,28.36859999973332]},"properties":{"OBJECTID_1":1568,"OBJECTID":1568,"Name":"Sumsing","DIST_NAME":""}},
{"type":"Feature","geometry":{"type":"Point","coordinates":[95.10772772979448,28.436273059727196]},"properties":{"OBJECTID_1":1569,"OBJECTID":1569,"Name":"Kumku","DIST_NAME":""}},
{"type":"Feature","geometry":{"type":"Point","coordinates":[95.0682734365064,28.59241490483709]},"properties":{"OBJECTID_1":1570,"OBJECTID":1570,"Name":"11 K.M. L Camp","DIST_NAME":""}},
{"type":"Feature","geometry":{"type":"Point","coordinates":[95.19920000022998,28.30399999982418]},"properties":{"OBJECTID_1":1571,"OBJECTID":1571,"Name":"Padu Abong","DIST_NAME":""}},
{"type":"Feature","geometry":{"type":"Point","coordinates":[95.26722222252015,28.363888890166603]},"properties":{"OBJECTID_1":1572,"OBJECTID":1572,"Name":"Adi Pasi-Sibuk","DIST_NAME":""}},
{"type":"Feature","geometry":{"type":"Point","coordinates":[95.20157421704074,28.308955665444294]},"properties":{"OBJECTID_1":1573,"OBJECTID":1573,"Name":"Padu Tangkum","DIST_NAME":""}},
{"type":"Feature","geometry":{"type":"Point","coordinates":[94.91099816164038,29.050285066906834]},"properties":{"OBJECTID_1":1574,"OBJECTID":1574,"Name":"Kopu","DIST_NAME":""}},
{"type":"Feature","geometry":{"type":"Point","coordinates":[95.10346374328581,28.425826642754604]},"properties":{"OBJECTID_1":1575,"OBJECTID":1575,"Name":"Peram","DIST_NAME":""}},
{"type":"Feature","geometry":{"type":"Point","coordinates":[95.27111111243518,28.37583333304185]},"properties":{"OBJECTID_1":1576,"OBJECTID":1576,"Name":"Adi Pasi-Bine","DIST_NAME":""}},
{"type":"Feature","geometry":{"type":"Point","coordinates":[95.10531522667671,28.431191285184926]},"properties":{"OBJECTID_1":1577,"OBJECTID":1577,"Name":"Ramku","DIST_NAME":""}},
{"type":"Feature","geometry":{"type":"Point","coordinates":[95.04489532471015,28.60109956419134]},"properties":{"OBJECTID_1":1578,"OBJECTID":1578,"Name":"Gette","DIST_NAME":""}},
{"type":"Feature","geometry":{"type":"Point","coordinates":[95.27166666653164,28.381666667265893]},"properties":{"OBJECTID_1":1579,"OBJECTID":1579,"Name":"Adi Pasi-Sikko","DIST_NAME":""}},
{"type":"Feature","geometry":{"type":"Point","coordinates":[95.2512754006657,28.442429035698694]},"properties":{"OBJECTID_1":1581,"OBJECTID":1581,"Name":"Damro-Boga-Lasing","DIST_NAME":""}},
{"type":"Feature","geometry":{"type":"Point","coordinates":[95.12610918302549,28.575441415449557]},"properties":{"OBJECTID_1":1582,"OBJECTID":1582,"Name":"Gobuk","DIST_NAME":""}},
{"type":"Feature","geometry":{"type":"Point","coordinates":[95.23985569697236,28.442478740772444]},"properties":{"OBJECTID_1":1583,"OBJECTID":1583,"Name":"Damro-Kumku","DIST_NAME":""}},
{"type":"Feature","geometry":{"type":"Point","coordinates":[94.98972071476884,28.954858644832143]},"properties":{"OBJECTID_1":1584,"OBJECTID":1584,"Name":"Kuging","DIST_NAME":""}},
{"type":"Feature","geometry":{"type":"Point","coordinates":[95.03895999963868,28.606510000251898]},"properties":{"OBJECTID_1":1585,"OBJECTID":1585,"Name":"Halleng","DIST_NAME":""}},
{"type":"Feature","geometry":{"type":"Point","coordinates":[94.83175000018514,28.954037000118053]},"properties":{"OBJECTID_1":1586,"OBJECTID":1586,"Name":"Ningging","DIST_NAME":""}},
{"type":"Feature","geometry":{"type":"Point","coordinates":[94.93420000032962,28.742529999937958]},"properties":{"OBJECTID_1":1587,"OBJECTID":1587,"Name":"Pugging","DIST_NAME":""}},
{"type":"Feature","geometry":{"type":"Point","coordinates":[94.89533715541857,28.826674467162434]},"properties":{"OBJECTID_1":1588,"OBJECTID":1588,"Name":"Likor","DIST_NAME":""}},
{"type":"Feature","geometry":{"type":"Point","coordinates":[95.06943999951854,28.602500000000656]},"properties":{"OBJECTID_1":1589,"OBJECTID":1589,"Name":"Simong","DIST_NAME":""}},
{"type":"Feature","geometry":{"type":"Point","coordinates":[94.97572953247482,29.126582946211343]},"properties":{"OBJECTID_1":1590,"OBJECTID":1590,"Name":"Norbulling","DIST_NAME":""}},
{"type":"Feature","geometry":{"type":"Point","coordinates":[94.82923767530893,28.93623976559002]},"properties":{"OBJECTID_1":1591,"OBJECTID":1591,"Name":"Monge","DIST_NAME":""}},
{"type":"Feature","geometry":{"type":"Point","coordinates":[94.7730896970721,28.853001406931014]},"properties":{"OBJECTID_1":1594,"OBJECTID":1594,"Name":"Migging H.Q.","DIST_NAME":""}},
{"type":"Feature","geometry":{"type":"Point","coordinates":[94.79243000050874,28.809613999908656]},"properties":{"OBJECTID_1":1595,"OBJECTID":1595,"Name":"Mossing","DIST_NAME":""}},
{"type":"Feature","geometry":{"type":"Point","coordinates":[95.0594400002548,28.573610000089452]},"properties":{"OBJECTID_1":1598,"OBJECTID":1598,"Name":"Kinekibo","DIST_NAME":""}},
{"type":"Feature","geometry":{"type":"Point","coordinates":[94.75288410388595,28.887785035087425]},"properties":{"OBJECTID_1":1600,"OBJECTID":1600,"Name":"Pango","DIST_NAME":""}},
{"type":"Feature","geometry":{"type":"Point","coordinates":[95.03220394204313,28.92760052058554]},"properties":{"OBJECTID_1":1603,"OBJECTID":1603,"Name":"Payendum","DIST_NAME":""}},
{"type":"Feature","geometry":{"type":"Point","coordinates":[95.02663759465625,28.91870681284131]},"properties":{"OBJECTID_1":1606,"OBJECTID":1606,"Name":"Nyokong","DIST_NAME":""}},
{"type":"Feature","geometry":{"type":"Point","coordinates":[95.18889000428153,28.8169685578783]},"properties":{"OBJECTID_1":1607,"OBJECTID":1607,"Name":"Singa H.Q.","DIST_NAME":""}},
{"type":"Feature","geometry":{"type":"Point","coordinates":[95.17241144950434,28.820643209083112]},"properties":{"OBJECTID_1":1608,"OBJECTID":1608,"Name":"Angachi","DIST_NAME":""}},
{"type":"Feature","geometry":{"type":"Point","coordinates":[95.0187699997478,28.614399999945345]},"properties":{"OBJECTID_1":1609,"OBJECTID":1609,"Name":"Gossang","DIST_NAME":""}},
{"type":"Feature","geometry":{"type":"Point","coordinates":[95.21833333361396,28.51166666734039]},"properties":{"OBJECTID_1":1634,"OBJECTID":1634,"Name":"Millang Lonpong","DIST_NAME":""}},
{"type":"Feature","geometry":{"type":"Point","coordinates":[95.1657536089489,28.539984545730615]},"properties":{"OBJECTID_1":1644,"OBJECTID":1644,"Name":"Kolung","DIST_NAME":""}},
{"type":"Feature","geometry":{"type":"Point","coordinates":[95.17600570821651,28.53630520303955]},"properties":{"OBJECTID_1":1649,"OBJECTID":1649,"Name":"Dalbing Gidum","DIST_NAME":""}},
{"type":"Feature","geometry":{"type":"Point","coordinates":[94.87276984277578,28.973049785368566]},"properties":{"OBJECTID_1":2383,"OBJECTID":2383,"Name":"Tuting Village Purung Old Tuting","DIST_NAME":""}},
{"type":"Feature","geometry":{"type":"Point","coordinates":[95.14790999977156,28.139511000070367]},"properties":{"OBJECTID_1":2390,"OBJECTID":2390,"Name":"26th Mile","DIST_NAME":""}},
{"type":"Feature","geometry":{"type":"Point","coordinates":[95.0764218460184,28.88744685067524]},"properties":{"OBJECTID_1":2391,"OBJECTID":2391,"Name":"Mankota","DIST_NAME":""}},
{"type":"Feature","geometry":{"type":"Point","coordinates":[95.0364960003358,28.191361000066397]},"properties":{"OBJECTID_1":2393,"OBJECTID":2393,"Name":"Pangi","DIST_NAME":""}},
{"type":"Feature","geometry":{"type":"Point","coordinates":[95.00010999968694,28.650479999619485]},"properties":{"OBJECTID_1":2396,"OBJECTID":2396,"Name":"Moying","DIST_NAME":""}},
{"type":"Feature","geometry":{"type":"Point","coordinates":[95.04414748969253,28.163620739803697]},"properties":{"OBJECTID_1":2397,"OBJECTID":2397,"Name":"Yembung Camp","DIST_NAME":""}},
{"type":"Feature","geometry":{"type":"Point","coordinates":[94.96736397652009,28.670056957138076]},"properties":{"OBJECTID_1":2398,"OBJECTID":2398,"Name":"Pittung","DIST_NAME":""}},
{"type":"Feature","geometry":{"type":"Point","coordinates":[94.99029279981636,28.662951499791518]},"properties":{"OBJECTID_1":2401,"OBJECTID":2401,"Name":"Ramsing","DIST_NAME":""}},
{"type":"Feature","geometry":{"type":"Point","coordinates":[95.20459438751632,28.182165162847014]},"properties":{"OBJECTID_1":2402,"OBJECTID":2402,"Name":"Pongging","DIST_NAME":""}},
{"type":"Feature","geometry":{"type":"Point","coordinates":[95.06618519025263,28.519469730051362]},"properties":{"OBJECTID_1":2409,"OBJECTID":2409,"Name":"Pangkang Kumku Jorkong","DIST_NAME":""}},
{"type":"Feature","geometry":{"type":"Point","coordinates":[94.88143832970951,28.41970167043548]},"properties":{"OBJECTID_1":2411,"OBJECTID":2411,"Name":"Sine","DIST_NAME":""}},
{"type":"Feature","geometry":{"type":"Point","coordinates":[95.22111730264072,28.50649133909442]},"properties":{"OBJECTID_1":2424,"OBJECTID":2424,"Name":"Millang Langdum-Langkong(Silang)","DIST_NAME":""}},
{"type":"Feature","geometry":{"type":"Point","coordinates":[95.11182488656398,28.489027626624626]},"properties":{"OBJECTID_1":2427,"OBJECTID":2427,"Name":"Komkar(Rasing)","DIST_NAME":""}},
{"type":"Feature","geometry":{"type":"Point","coordinates":[95.22550000045437,28.22199999964426]},"properties":{"OBJECTID_1":2429,"OBJECTID":2429,"Name":"Silli Hydel Camp","DIST_NAME":""}},
{"type":"Feature","geometry":{"type":"Point","coordinates":[95.24729716745125,28.403826174268687]},"properties":{"OBJECTID_1":2431,"OBJECTID":2431,"Name":"Siyat Camp","DIST_NAME":""}},
{"type":"Feature","geometry":{"type":"Point","coordinates":[95.22232997415696,28.48498779637669]},"properties":{"OBJECTID_1":2451,"OBJECTID":2451,"Name":"Bomi","DIST_NAME":""}},
{"type":"Feature","geometry":{"type":"Point","coordinates":[95.02529999982455,28.641380000275483]},"properties":{"OBJECTID_1":2476,"OBJECTID":2476,"Name":"Yingkiong H.Q.","DIST_NAME":""}},
{"type":"Feature","geometry":{"type":"Point","coordinates":[94.93765600088071,28.96862701363454]},"properties":{"OBJECTID_1":2508,"OBJECTID":2508,"Name":"Ngaming","DIST_NAME":""}},
{"type":"Feature","geometry":{"type":"Point","coordinates":[94.88904666955388,28.99330393556697]},"properties":{"OBJECTID_1":2690,"OBJECTID":2690,"Name":"Tuting H.Q.","DIST_NAME":""}},
{"type":"Feature","geometry":{"type":"Point","coordinates":[94.88501374952466,28.99862148670528]},"properties":{"OBJECTID_1":2697,"OBJECTID":2697,"Name":"Rishing Ongkong","DIST_NAME":""}},
{"type":"Feature","geometry":{"type":"Point","coordinates":[95.10671968371769,28.43964863497187]},"properties":{"OBJECTID_1":2701,"OBJECTID":2701,"Name":"Boom","DIST_NAME":""}},
{"type":"Feature","geometry":{"type":"Point","coordinates":[95.08481897469586,28.41688199983846]},"properties":{"OBJECTID_1":2702,"OBJECTID":2702,"Name":"Delek","DIST_NAME":""}},
{"type":"Feature","geometry":{"type":"Point","coordinates":[95.00988479597679,28.936076151427162]},"properties":{"OBJECTID_1":2703,"OBJECTID":2703,"Name":"Nyering","DIST_NAME":""}},
{"type":"Feature","geometry":{"type":"Point","coordinates":[95.08913637943371,28.425495231617607]},"properties":{"OBJECTID_1":2704,"OBJECTID":2704,"Name":"Geku H.Q.","DIST_NAME":""}},
{"type":"Feature","geometry":{"type":"Point","coordinates":[95.06426399667569,28.89421171190281]},"properties":{"OBJECTID_1":2706,"OBJECTID":2706,"Name":"Yortung","DIST_NAME":""}},
{"type":"Feature","geometry":{"type":"Point","coordinates":[95.0819096017797,28.88300173926131]},"properties":{"OBJECTID_1":2707,"OBJECTID":2707,"Name":"Deokota","DIST_NAME":""}},
{"type":"Feature","geometry":{"type":"Point","coordinates":[94.78259665424967,28.806900350220495]},"properties":{"OBJECTID_1":2724,"OBJECTID":2724,"Name":"Moso","DIST_NAME":""}},
{"type":"Feature","geometry":{"type":"Point","coordinates":[94.47875127686261,29.066818271777933]},"properties":{"OBJECTID_1":2733,"OBJECTID":2733,"Name":"Tenggo","DIST_NAME":""}},
{"type":"Feature","geometry":{"type":"Point","coordinates":[94.70841781816101,28.310952268103996]},"properties":{"OBJECTID_1":2946,"OBJECTID":2946,"Name":"Bogne","DIST_NAME":""}},
{"type":"Feature","geometry":{"type":"Point","coordinates":[94.65848099982361,28.531328999777593]},"properties":{"OBJECTID_1":2948,"OBJECTID":2948,"Name":"Bogu","DIST_NAME":""}},
{"type":"Feature","geometry":{"type":"Point","coordinates":[94.67831717568492,28.41391277893579]},"properties":{"OBJECTID_1":2950,"OBJECTID":2950,"Name":"Kaying HQ","DIST_NAME":""}},
{"type":"Feature","geometry":{"type":"Point","coordinates":[94.65692320797666,28.504493700402104]},"properties":{"OBJECTID_1":2952,"OBJECTID":2952,"Name":"Pame","DIST_NAME":""}},
{"type":"Feature","geometry":{"type":"Point","coordinates":[94.63224499963471,28.562632999905034]},"properties":{"OBJECTID_1":2954,"OBJECTID":2954,"Name":"Yio","DIST_NAME":""}},
{"type":"Feature","geometry":{"type":"Point","coordinates":[94.81451199954991,28.227583000370682]},"properties":{"OBJECTID_1":2956,"OBJECTID":2956,"Name":"Jomlo Mobuk","DIST_NAME":""}},
{"type":"Feature","geometry":{"type":"Point","coordinates":[94.86509099966095,28.227766000283264]},"properties":{"OBJECTID_1":2957,"OBJECTID":2957,"Name":"Lorging","DIST_NAME":""}},
{"type":"Feature","geometry":{"type":"Point","coordinates":[94.8874900003216,28.30985800008828]},"properties":{"OBJECTID_1":2958,"OBJECTID":2958,"Name":"Rumgong HQ.","DIST_NAME":""}},
{"type":"Feature","geometry":{"type":"Point","coordinates":[94.60040675462984,28.552471870667773]},"properties":{"OBJECTID_1":3221,"OBJECTID":3221,"Name":"Dupu","DIST_NAME":""}},
{"type":"Feature","geometry":{"type":"Point","coordinates":[94.67244276926442,28.58978733231625]},"properties":{"OBJECTID_1":3224,"OBJECTID":3224,"Name":"Gaming","DIST_NAME":""}},
{"type":"Feature","geometry":{"type":"Point","coordinates":[94.62132099984913,28.652343000425706]},"properties":{"OBJECTID_1":3229,"OBJECTID":3229,"Name":"Gate","DIST_NAME":""}},
{"type":"Feature","geometry":{"type":"Point","coordinates":[94.67741248853872,28.42253796992886]},"properties":{"OBJECTID_1":3230,"OBJECTID":3230,"Name":"Kaying Vill.","DIST_NAME":""}},
{"type":"Feature","geometry":{"type":"Point","coordinates":[94.67082338054338,28.494295405652906]},"properties":{"OBJECTID_1":3231,"OBJECTID":3231,"Name":"Mega","DIST_NAME":""}},
{"type":"Feature","geometry":{"type":"Point","coordinates":[94.68605300775016,28.32293622878427]},"properties":{"OBJECTID_1":3232,"OBJECTID":3232,"Name":"New Bogne","DIST_NAME":""}},
{"type":"Feature","geometry":{"type":"Point","coordinates":[94.67968113307104,28.35288289522253]},"properties":{"OBJECTID_1":3233,"OBJECTID":3233,"Name":"New Kerang","DIST_NAME":""}},
{"type":"Feature","geometry":{"type":"Point","coordinates":[94.654483766049,28.58215268191652]},"properties":{"OBJECTID_1":3235,"OBJECTID":3235,"Name":"Payum HQ","DIST_NAME":""}},
{"type":"Feature","geometry":{"type":"Point","coordinates":[94.71292338228093,28.412688471181024]},"properties":{"OBJECTID_1":3238,"OBJECTID":3238,"Name":"Paksing","DIST_NAME":""}},
{"type":"Feature","geometry":{"type":"Point","coordinates":[94.67944685797016,28.440836232807758]},"properties":{"OBJECTID_1":3239,"OBJECTID":3239,"Name":"Rigonh","DIST_NAME":""}},
{"type":"Feature","geometry":{"type":"Point","coordinates":[94.6560757313313,28.49916153042871]},"properties":{"OBJECTID_1":3240,"OBJECTID":3240,"Name":"Reying","DIST_NAME":""}},
{"type":"Feature","geometry":{"type":"Point","coordinates":[94.68331162562863,28.456324890332873]},"properties":{"OBJECTID_1":3242,"OBJECTID":3242,"Name":"Tumbin","DIST_NAME":""}},
{"type":"Feature","geometry":{"type":"Point","coordinates":[94.86406799978937,28.368185999854077]},"properties":{"OBJECTID_1":3243,"OBJECTID":3243,"Name":"Yogong","DIST_NAME":""}},
{"type":"Feature","geometry":{"type":"Point","coordinates":[94.83232900000057,28.245466000189964]},"properties":{"OBJECTID_1":3245,"OBJECTID":3245,"Name":"Gebo","DIST_NAME":""}},
{"type":"Feature","geometry":{"type":"Point","coordinates":[94.99085490038017,29.06532959174808]},"properties":{"OBJECTID_1":3317,"OBJECTID":3317,"Name":"Mayum","DIST_NAME":""}},
{"type":"Feature","geometry":{"type":"Point","coordinates":[94.5833022364183,28.52023884981597]},"properties":{"OBJECTID_1":3512,"OBJECTID":3512,"Name":"Row","DIST_NAME":""}},
{"type":"Feature","geometry":{"type":"Point","coordinates":[94.65494445056859,28.42284754506047]},"properties":{"OBJECTID_1":3514,"OBJECTID":3514,"Name":"Tuying","DIST_NAME":""}},
{"type":"Feature","geometry":{"type":"Point","coordinates":[94.8262539995278,28.251965999854086]},"properties":{"OBJECTID_1":3516,"OBJECTID":3516,"Name":"Mori","DIST_NAME":""}},
{"type":"Feature","geometry":{"type":"Point","coordinates":[94.8102470004498,28.216058999754438]},"properties":{"OBJECTID_1":3518,"OBJECTID":3518,"Name":"Jomlo Bari","DIST_NAME":""}},
{"type":"Feature","geometry":{"type":"Point","coordinates":[95.10423142005052,28.13472391004149]},"properties":{"OBJECTID_1":4042,"OBJECTID":4042,"Name":"Babuk","DIST_NAME":""}},
{"type":"Feature","geometry":{"type":"Point","coordinates":[95.00673000027243,28.325826670364908]},"properties":{"OBJECTID_1":4043,"OBJECTID":4043,"Name":"Begging","DIST_NAME":""}},
{"type":"Feature","geometry":{"type":"Point","coordinates":[94.95387308048022,28.321432170013278]},"properties":{"OBJECTID_1":4044,"OBJECTID":4044,"Name":"Boleng HQ","DIST_NAME":""}},
{"type":"Feature","geometry":{"type":"Point","coordinates":[94.91614000020188,28.3870549995889]},"properties":{"OBJECTID_1":4045,"OBJECTID":4045,"Name":"Pareng","DIST_NAME":""}},
{"type":"Feature","geometry":{"type":"Point","coordinates":[95.02165050043187,28.35099502959864]},"properties":{"OBJECTID_1":4046,"OBJECTID":4046,"Name":"Parong","DIST_NAME":""}},
{"type":"Feature","geometry":{"type":"Point","coordinates":[95.05595650973173,28.331100380032993]},"properties":{"OBJECTID_1":4047,"OBJECTID":4047,"Name":"Riew","DIST_NAME":""}},
{"type":"Feature","geometry":{"type":"Point","coordinates":[95.0478709795351,28.415568469610328]},"properties":{"OBJECTID_1":4048,"OBJECTID":4048,"Name":"Riga HQ","DIST_NAME":""}},
{"type":"Feature","geometry":{"type":"Point","coordinates":[95.08118571962777,28.450269300423816]},"properties":{"OBJECTID_1":4049,"OBJECTID":4049,"Name":"Riga Mongku Mobuk","DIST_NAME":""}},
{"type":"Feature","geometry":{"type":"Point","coordinates":[95.15373464008954,28.142554229738643]},"properties":{"OBJECTID_1":4050,"OBJECTID":4050,"Name":"Rottung","DIST_NAME":""}},
{"type":"Feature","geometry":{"type":"Point","coordinates":[95.1239421195394,28.142523020346474]},"properties":{"OBJECTID_1":4051,"OBJECTID":4051,"Name":"Sissen","DIST_NAME":""}},
{"type":"Feature","geometry":{"type":"Point","coordinates":[95.05710100015091,28.38426100017535]},"properties":{"OBJECTID_1":4052,"OBJECTID":4052,"Name":"Sitang","DIST_NAME":""}},
{"type":"Feature","geometry":{"type":"Point","coordinates":[94.90462166958122,28.45227166985017]},"properties":{"OBJECTID_1":4053,"OBJECTID":4053,"Name":"Supsing","DIST_NAME":""}},
{"type":"Feature","geometry":{"type":"Point","coordinates":[94.89645099959843,28.217758999805557]},"properties":{"OBJECTID_1":4054,"OBJECTID":4054,"Name":"Tarak","DIST_NAME":""}},
{"type":"Feature","geometry":{"type":"Point","coordinates":[94.84430832965933,28.453381669629923]},"properties":{"OBJECTID_1":4055,"OBJECTID":4055,"Name":"Yibuk","DIST_NAME":""}},
{"type":"Feature","geometry":{"type":"Point","coordinates":[94.88272167041968,28.44576499958892]},"properties":{"OBJECTID_1":4056,"OBJECTID":4056,"Name":"Yingku","DIST_NAME":""}},
{"type":"Feature","geometry":{"type":"Point","coordinates":[94.89110660055275,29.000407959278416]},"properties":{"OBJECTID_1":4080,"OBJECTID":4080,"Name":"Lali","DIST_NAME":""}},
{"type":"Feature","geometry":{"type":"Point","coordinates":[94.93746550193862,28.964424046562435]},"properties":{"OBJECTID_1":4081,"OBJECTID":4081,"Name":"Pokbir","DIST_NAME":""}},
{"type":"Feature","geometry":{"type":"Point","coordinates":[95.24527777730385,28.447500000185446]},"properties":{"OBJECTID_1":4082,"OBJECTID":4082,"Name":"Damro-Gingkong","DIST_NAME":""}},
{"type":"Feature","geometry":{"type":"Point","coordinates":[95.1969299999324,28.259011222788526]},"properties":{"OBJECTID_1":4083,"OBJECTID":4083,"Name":"Jeru","DIST_NAME":""}},
{"type":"Feature","geometry":{"type":"Point","coordinates":[95.08070000024466,28.401499999780356]},"properties":{"OBJECTID_1":4084,"OBJECTID":4084,"Name":"Jommo-Kupak","DIST_NAME":""}},
{"type":"Feature","geometry":{"type":"Point","coordinates":[95.16176285893768,28.31135714801658]},"properties":{"OBJECTID_1":4085,"OBJECTID":4085,"Name":"Katan H.Q.","DIST_NAME":""}},
{"type":"Feature","geometry":{"type":"Point","coordinates":[95.10988757405602,28.499907116831395]},"properties":{"OBJECTID_1":4086,"OBJECTID":4086,"Name":"Komkar (Buksang)","DIST_NAME":""}},
{"type":"Feature","geometry":{"type":"Point","coordinates":[95.15495143738487,28.3130089801928]},"properties":{"OBJECTID_1":4087,"OBJECTID":4087,"Name":"Sibum","DIST_NAME":""}},
{"type":"Feature","geometry":{"type":"Point","coordinates":[95.09886013621019,28.421389268667106]},"properties":{"OBJECTID_1":4088,"OBJECTID":4088,"Name":"Sikadine","DIST_NAME":""}},
{"type":"Feature","geometry":{"type":"Point","coordinates":[95.22312985554873,28.23098153566057]},"properties":{"OBJECTID_1":4089,"OBJECTID":4089,"Name":"Silli","DIST_NAME":""}},
{"type":"Feature","geometry":{"type":"Point","coordinates":[95.24665512042924,28.44507777791689]},"properties":{"OBJECTID_1":4090,"OBJECTID":4090,"Name":"Damro-Gidum","DIST_NAME":""}},
{"type":"Feature","geometry":{"type":"Point","coordinates":[94.87110085337395,28.99002998033374]},"properties":{"OBJECTID_1":4091,"OBJECTID":4091,"Name":"Gome","DIST_NAME":""}},
{"type":"Feature","geometry":{"type":"Point","coordinates":[95.18638888880805,28.54777777837238]},"properties":{"OBJECTID_1":4092,"OBJECTID":4092,"Name":"Dalbing Bellang","DIST_NAME":""}},
{"type":"Feature","geometry":{"type":"Point","coordinates":[95.02650465134086,29.109150325227873]},"properties":{"OBJECTID_1":4093,"OBJECTID":4093,"Name":"Bishing","DIST_NAME":""}},
{"type":"Feature","geometry":{"type":"Point","coordinates":[94.97802640429894,29.133238109590565]},"properties":{"OBJECTID_1":4094,"OBJECTID":4094,"Name":"Gelling H.Q.","DIST_NAME":""}},
{"type":"Feature","geometry":{"type":"Point","coordinates":[94.90505010217188,28.982156319411043]},"properties":{"OBJECTID_1":4095,"OBJECTID":4095,"Name":"Jido","DIST_NAME":""}},
{"type":"Feature","geometry":{"type":"Point","coordinates":[95.19998521558108,28.81417199085856]},"properties":{"OBJECTID_1":4099,"OBJECTID":4099,"Name":"Simuling","DIST_NAME":""}},
{"type":"Feature","geometry":{"type":"Point","coordinates":[94.89112171850081,28.98780473416694]},"properties":{"OBJECTID_1":4100,"OBJECTID":4100,"Name":"Pekong","DIST_NAME":""}},
{"type":"Feature","geometry":{"type":"Point","coordinates":[95.1741206415108,28.825801161197724]},"properties":{"OBJECTID_1":4101,"OBJECTID":4101,"Name":"Silage","DIST_NAME":""}},
{"type":"Feature","geometry":{"type":"Point","coordinates":[94.7889652654459,28.851669198398117]},"properties":{"OBJECTID_1":4102,"OBJECTID":4102,"Name":"Migging II","DIST_NAME":""}},
{"type":"Feature","geometry":{"type":"Point","coordinates":[94.82636824398566,28.93395297964234]},"properties":{"OBJECTID_1":4103,"OBJECTID":4103,"Name":"Angging","DIST_NAME":""}},
{"type":"Feature","geometry":{"type":"Point","coordinates":[95.06203609929837,28.547853452699787]},"properties":{"OBJECTID_1":4104,"OBJECTID":4104,"Name":"Jengging H.Q.","DIST_NAME":""}},
{"type":"Feature","geometry":{"type":"Point","coordinates":[94.85920930732507,28.79578360120178]},"properties":{"OBJECTID_1":4105,"OBJECTID":4105,"Name":"Janbo","DIST_NAME":""}},
{"type":"Feature","geometry":{"type":"Point","coordinates":[95.0569099997247,28.578649999614623]},"properties":{"OBJECTID_1":4106,"OBJECTID":4106,"Name":"Tageng","DIST_NAME":""}},
{"type":"Feature","geometry":{"type":"Point","coordinates":[95.05677826471086,28.568794726291213]},"properties":{"OBJECTID_1":4107,"OBJECTID":4107,"Name":"Karko","DIST_NAME":""}},
{"type":"Feature","geometry":{"type":"Point","coordinates":[95.2174999997745,28.489999999862786]},"properties":{"OBJECTID_1":4122,"OBJECTID":4122,"Name":"Mariyang H.Q.","DIST_NAME":""}},
{"type":"Feature","geometry":{"type":"Point","coordinates":[95.20652840233805,28.489886267952304]},"properties":{"OBJECTID_1":4123,"OBJECTID":4123,"Name":"New Millang","DIST_NAME":""}},
{"type":"Feature","geometry":{"type":"Point","coordinates":[95.22000000143248,28.510833333135608]},"properties":{"OBJECTID_1":4124,"OBJECTID":4124,"Name":"Milang Kartek","DIST_NAME":""}},
{"type":"Feature","geometry":{"type":"Point","coordinates":[94.81087021355569,28.837406584854488]},"properties":{"OBJECTID_1":4666,"OBJECTID":4666,"Name":"Palling H.Q.","DIST_NAME":""}},
{"type":"Feature","geometry":{"type":"Point","coordinates":[95.20892745524785,28.25438594481233]},"properties":{"OBJECTID_1":4667,"OBJECTID":4667,"Name":"Geying Camp","DIST_NAME":""}},
{"type":"Feature","geometry":{"type":"Point","coordinates":[95.10414500005145,28.136976000072647]},"properties":{"OBJECTID_1":4680,"OBJECTID":4680,"Name":"29th mile camp","DIST_NAME":""}},
{"type":"Feature","geometry":{"type":"Point","coordinates":[95.16982300029115,28.10385299979243]},"properties":{"OBJECTID_1":4681,"OBJECTID":4681,"Name":"Kallek","DIST_NAME":""}},
{"type":"Feature","geometry":{"type":"Point","coordinates":[95.019547999545,28.240275999681938]},"properties":{"OBJECTID_1":4682,"OBJECTID":4682,"Name":"Komsing Karo","DIST_NAME":""}},
{"type":"Feature","geometry":{"type":"Point","coordinates":[95.26305555513201,28.575277778062937]},"properties":{"OBJECTID_1":4713,"OBJECTID":4713,"Name":"Peki-Modi","DIST_NAME":""}},
{"type":"Feature","geometry":{"type":"Point","coordinates":[94.9476566847072,29.097357551248233]},"properties":{"OBJECTID_1":4720,"OBJECTID":4720,"Name":"Bona","DIST_NAME":""}},
{"type":"Feature","geometry":{"type":"Point","coordinates":[95.16526606331335,28.832675532772207]},"properties":{"OBJECTID_1":4728,"OBJECTID":4728,"Name":"Singa Old","DIST_NAME":""}},
{"type":"Feature","geometry":{"type":"Point","coordinates":[94.89765326752881,28.75307359370254]},"properties":{"OBJECTID_1":4746,"OBJECTID":4746,"Name":"Bomdo","DIST_NAME":""}},
{"type":"Feature","geometry":{"type":"Point","coordinates":[94.78444694350365,28.897685888993376]},"properties":{"OBJECTID_1":4877,"OBJECTID":4877,"Name":"Singing","DIST_NAME":""}},
{"type":"Feature","geometry":{"type":"Point","coordinates":[95.10416794869181,28.87204027995367]},"properties":{"OBJECTID_1":4878,"OBJECTID":4878,"Name":"Tashi Gaon","DIST_NAME":""}},
{"type":"Feature","geometry":{"type":"Point","coordinates":[95.13202450680176,28.854353458702214]},"properties":{"OBJECTID_1":4879,"OBJECTID":4879,"Name":"Silipu","DIST_NAME":""}},
{"type":"Feature","geometry":{"type":"Point","coordinates":[95.15480774112149,28.839137570307095]},"properties":{"OBJECTID_1":4880,"OBJECTID":4880,"Name":"Simuge","DIST_NAME":""}},
{"type":"Feature","geometry":{"type":"Point","coordinates":[94.89686318672419,28.429428702400813]},"properties":{"OBJECTID_1":0,"OBJECTID":0,"Name":"Nirle","DIST_NAME":""}},
{"type":"Feature","geometry":{"type":"Point","coordinates":[94.8938591172043,28.439571154938207]},"properties":{"OBJECTID_1":0,"OBJECTID":0,"Name":"Suple","DIST_NAME":""}},
{"type":"Feature","geometry":{"type":"Point","coordinates":[94.89695241651191,28.44212907551949]},"properties":{"OBJECTID_1":0,"OBJECTID":0,"Name":"Hotek","DIST_NAME":""}}
]}